<kml xmlns="http://www.opengis.net/kml/2.2">
  <Document>
    <visibility>1</visibility>
    <Folder>
      <name>0</name>
      <visibility>1</visibility>
      <Placemark>
        <name>Edward Wong Tower</name>
        <visibility>1</visibility>
        <Point>
          <coordinates>114.146425,22.337012</coordinates>
        </Point>
      </Placemark>
      <Placemark>
        <name>CRE Centre</name>
        <visibility>1</visibility>
        <Point>
          <coordinates>114.147078,22.336609</coordinates>
        </Point>
      </Placemark>
      <Placemark>
        <name>Wah Shing Industrial Building</name>
        <visibility>1</visibility>
        <Point>
          <coordinates>114.146832,22.336472</coordinates>
        </Point>
      </Placemark>
      <Placemark>
        <name>Premier Centre</name>
        <visibility>1</visibility>
        <Point>
          <coordinates>114.146557,22.336373</coordinates>
        </Point>
      </Placemark>
      <Placemark>
        <name>Hong Kong Industrial Centre Block A</name>
        <visibility>1</visibility>
        <Point>
          <coordinates>114.146692,22.337125</coordinates>
        </Point>
      </Placemark>
    </Folder>
    <Folder>
      <name>1</name>
      <visibility>1</visibility>
      <Placemark>
        <name>Manley Tower</name>
        <visibility>1</visibility>
        <Point>
          <coordinates>114.148159,22.337600</coordinates>
        </Point>
      </Placemark>
      <Placemark>
        <name>Cheung Sha Wan Plaza ( Tower 1 )</name>
        <visibility>1</visibility>
        <Point>
          <coordinates>114.149137,22.337246</coordinates>
        </Point>
      </Placemark>
      <Placemark>
        <name>Cheung Sha Wan Plaza ( Tower 2 )</name>
        <visibility>1</visibility>
        <Point>
          <coordinates>114.148319,22.336969</coordinates>
        </Point>
      </Placemark>
      <Placemark>
        <name>Hong Kong Spinners Industrial Building Phase I And II</name>
        <visibility>1</visibility>
        <Point>
          <coordinates>114.148508,22.337763</coordinates>
        </Point>
      </Placemark>
    </Folder>
    <Folder>
      <name>2</name>
      <visibility>1</visibility>
      <Placemark>
        <name>Clifford Centre</name>
        <visibility>1</visibility>
        <Point>
          <coordinates>114.150230,22.338322</coordinates>
        </Point>
      </Placemark>
      <Placemark>
        <name>Tin On Industrial Building</name>
        <visibility>1</visibility>
        <Point>
          <coordinates>114.150485,22.337728</coordinates>
        </Point>
      </Placemark>
      <Placemark>
        <name>Gee Hing Chang Industrial Building</name>
        <visibility>1</visibility>
        <Point>
          <coordinates>114.150139,22.337651</coordinates>
        </Point>
      </Placemark>
      <Placemark>
        <name>Hong Kong Spinners Industrial Building Phase V</name>
        <visibility>1</visibility>
        <Point>
          <coordinates>114.150421,22.338369</coordinates>
        </Point>
      </Placemark>
      <Placemark>
        <name>Laws Commercial Plaza</name>
        <visibility>1</visibility>
        <Point>
          <coordinates>114.149845,22.338192</coordinates>
        </Point>
      </Placemark>
    </Folder>
    <Folder>
      <name>3</name>
      <visibility>1</visibility>
      <Placemark>
        <name>Cst</name>
        <visibility>1</visibility>
        <Point>
          <coordinates>114.152345,22.338792</coordinates>
        </Point>
      </Placemark>
      <Placemark>
        <name>Charming Garden</name>
        <visibility>1</visibility>
        <Point>
          <coordinates>114.152606,22.338555</coordinates>
        </Point>
      </Placemark>
      <Placemark>
        <name>Hung Cheong Factory Building</name>
        <visibility>1</visibility>
        <Point>
          <coordinates>114.151460,22.338803</coordinates>
        </Point>
      </Placemark>
    </Folder>
    <Folder>
      <name>4</name>
      <visibility>1</visibility>
      <Placemark>
        <name>Cheung Sha Wan Sports Centre</name>
        <visibility>1</visibility>
        <Point>
          <coordinates>114.153470,22.337993</coordinates>
        </Point>
      </Placemark>
      <Placemark>
        <name>Un Hong House</name>
        <visibility>1</visibility>
        <Point>
          <coordinates>114.154290,22.337195</coordinates>
        </Point>
      </Placemark>
      <Placemark>
        <name>Trade Square</name>
        <visibility>1</visibility>
        <Point>
          <coordinates>114.153688,22.336872</coordinates>
        </Point>
      </Placemark>
    </Folder>
    <Folder>
      <name>5</name>
      <visibility>1</visibility>
      <Placemark>
        <name>Cheung Sha Wan Fire Station</name>
        <visibility>1</visibility>
        <Point>
          <coordinates>114.155122,22.335957</coordinates>
        </Point>
      </Placemark>
      <Placemark>
        <name>Un Lok House</name>
        <visibility>1</visibility>
        <Point>
          <coordinates>114.155666,22.336628</coordinates>
        </Point>
      </Placemark>
    </Folder>
    <Folder>
      <name>6</name>
      <visibility>1</visibility>
      <Placemark>
        <name>Un Yat House</name>
        <visibility>1</visibility>
        <Point>
          <coordinates>114.156871,22.335463</coordinates>
        </Point>
      </Placemark>
      <Placemark>
        <name>Cheung Sha Wan Estate Ancillary Facilities Block</name>
        <visibility>1</visibility>
        <Point>
          <coordinates>114.156604,22.334835</coordinates>
        </Point>
      </Placemark>
      <Placemark>
        <name>UN CHAU ESTATE Ancillary Facilities Block</name>
        <visibility>1</visibility>
        <Point>
          <coordinates>114.156954,22.335295</coordinates>
        </Point>
      </Placemark>
    </Folder>
    <Folder>
      <name>7</name>
      <visibility>1</visibility>
      <Placemark>
        <name>S.K.H. St. Thomas' Primary School</name>
        <visibility>1</visibility>
        <Point>
          <coordinates>114.158329,22.334400</coordinates>
        </Point>
      </Placemark>
      <Placemark>
        <name>Kowloon Technical School</name>
        <visibility>1</visibility>
        <Point>
          <coordinates>114.158813,22.334134</coordinates>
        </Point>
      </Placemark>
      <Placemark>
        <name>Yee Lok House</name>
        <visibility>1</visibility>
        <Point>
          <coordinates>114.157987,22.333444</coordinates>
        </Point>
      </Placemark>
      <Placemark>
        <name>Lai Kok Shopping Centre Substation</name>
        <visibility>1</visibility>
        <Point>
          <coordinates>114.157533,22.334137</coordinates>
        </Point>
      </Placemark>
      <Placemark>
        <name>Lai Ho House</name>
        <visibility>1</visibility>
        <Point>
          <coordinates>114.157609,22.333609</coordinates>
        </Point>
      </Placemark>
    </Folder>
    <Folder>
      <name>8</name>
      <visibility>1</visibility>
      <Placemark>
        <name>CLP Power Hong Kong Ltd Sham Shui Po Centre</name>
        <visibility>1</visibility>
        <Point>
          <coordinates>114.159698,22.332940</coordinates>
        </Point>
      </Placemark>
      <Placemark>
        <name>Yee Ching Court Block C</name>
        <visibility>1</visibility>
        <Point>
          <coordinates>114.159751,22.332172</coordinates>
        </Point>
      </Placemark>
      <Placemark>
        <name>Ning Ching House</name>
        <visibility>1</visibility>
        <Point>
          <coordinates>114.159331,22.332497</coordinates>
        </Point>
      </Placemark>
      <Placemark>
        <name>South Ocean Building</name>
        <visibility>1</visibility>
        <Point>
          <coordinates>114.160393,22.332489</coordinates>
        </Point>
      </Placemark>
    </Folder>
    <Folder>
      <name>9</name>
      <visibility>1</visibility>
      <Placemark>
        <name>Mill Reef House</name>
        <visibility>1</visibility>
        <Point>
          <coordinates>114.161278,22.331834</coordinates>
        </Point>
      </Placemark>
      <Placemark>
        <name>Chow Har Building</name>
        <visibility>1</visibility>
        <Point>
          <coordinates>114.161285,22.331758</coordinates>
        </Point>
      </Placemark>
      <Placemark>
        <name>Asian Building</name>
        <visibility>1</visibility>
        <Point>
          <coordinates>114.161325,22.331730</coordinates>
        </Point>
      </Placemark>
      <Placemark>
        <name>Wing On Building</name>
        <visibility>1</visibility>
        <Point>
          <coordinates>114.161477,22.331670</coordinates>
        </Point>
      </Placemark>
      <Placemark>
        <name>Hung Yick Building</name>
        <visibility>1</visibility>
        <Point>
          <coordinates>114.161189,22.331319</coordinates>
        </Point>
      </Placemark>
      <Placemark>
        <name>Sui Cheong House</name>
        <visibility>1</visibility>
        <Point>
          <coordinates>114.161062,22.331388</coordinates>
        </Point>
      </Placemark>
      <Placemark>
        <name>Yau Hing Building</name>
        <visibility>1</visibility>
        <Point>
          <coordinates>114.161608,22.331561</coordinates>
        </Point>
      </Placemark>
      <Placemark>
        <name>Lan Fong Building</name>
        <visibility>1</visibility>
        <Point>
          <coordinates>114.161301,22.331221</coordinates>
        </Point>
      </Placemark>
      <Placemark>
        <name>Prosperity Court</name>
        <visibility>1</visibility>
        <Point>
          <coordinates>114.160897,22.331311</coordinates>
        </Point>
      </Placemark>
      <Placemark>
        <name>Kam Fai Building</name>
        <visibility>1</visibility>
        <Point>
          <coordinates>114.161006,22.332041</coordinates>
        </Point>
      </Placemark>
    </Folder>
    <Folder>
      <name>10</name>
      <visibility>1</visibility>
      <Placemark>
        <name>Sin Hua Bank Building</name>
        <visibility>1</visibility>
        <Point>
          <coordinates>114.162737,22.330735</coordinates>
        </Point>
      </Placemark>
      <Placemark>
        <name>Fu On Commercial Building</name>
        <visibility>1</visibility>
        <Point>
          <coordinates>114.163014,22.330491</coordinates>
        </Point>
      </Placemark>
      <Placemark>
        <name>Cheong Lok Building</name>
        <visibility>1</visibility>
        <Point>
          <coordinates>114.162775,22.330084</coordinates>
        </Point>
      </Placemark>
      <Placemark>
        <name>Cheung Lee Building</name>
        <visibility>1</visibility>
        <Point>
          <coordinates>114.162192,22.330532</coordinates>
        </Point>
      </Placemark>
      <Placemark>
        <name>Happy Centre</name>
        <visibility>1</visibility>
        <Point>
          <coordinates>114.163187,22.330345</coordinates>
        </Point>
      </Placemark>
      <Placemark>
        <name>New Pei Ho Building</name>
        <visibility>1</visibility>
        <Point>
          <coordinates>114.162611,22.329948</coordinates>
        </Point>
      </Placemark>
      <Placemark>
        <name>Shui Sing Building</name>
        <visibility>1</visibility>
        <Point>
          <coordinates>114.162542,22.330870</coordinates>
        </Point>
      </Placemark>
    </Folder>
    <Folder>
      <name>11</name>
      <visibility>1</visibility>
      <Placemark>
        <name>Iskra Building</name>
        <visibility>1</visibility>
        <Point>
          <coordinates>114.164299,22.329494</coordinates>
        </Point>
      </Placemark>
      <Placemark>
        <name>Cheung Sha Mansion</name>
        <visibility>1</visibility>
        <Point>
          <coordinates>114.164537,22.329306</coordinates>
        </Point>
      </Placemark>
      <Placemark>
        <name>Lin Cheong Building</name>
        <visibility>1</visibility>
        <Point>
          <coordinates>114.164182,22.328994</coordinates>
        </Point>
      </Placemark>
      <Placemark>
        <name>Cheung Lee Building</name>
        <visibility>1</visibility>
        <Point>
          <coordinates>114.163993,22.329136</coordinates>
        </Point>
      </Placemark>
      <Placemark>
        <name>Dah Sing Building</name>
        <visibility>1</visibility>
        <Point>
          <coordinates>114.164162,22.329596</coordinates>
        </Point>
      </Placemark>
      <Placemark>
        <name>Joy Wise Mansion</name>
        <visibility>1</visibility>
        <Point>
          <coordinates>114.164258,22.328937</coordinates>
        </Point>
      </Placemark>
    </Folder>
    <Folder>
      <name>12</name>
      <visibility>1</visibility>
      <Placemark>
        <name>Charming Building</name>
        <visibility>1</visibility>
        <Point>
          <coordinates>114.165667,22.328320</coordinates>
        </Point>
      </Placemark>
      <Placemark>
        <name>Celebrity Court</name>
        <visibility>1</visibility>
        <Point>
          <coordinates>114.165847,22.328285</coordinates>
        </Point>
      </Placemark>
      <Placemark>
        <name>Cheung Ming Building</name>
        <visibility>1</visibility>
        <Point>
          <coordinates>114.165667,22.328455</coordinates>
        </Point>
      </Placemark>
      <Placemark>
        <name>Kwong Hing Building</name>
        <visibility>1</visibility>
        <Point>
          <coordinates>114.166273,22.327956</coordinates>
        </Point>
      </Placemark>
      <Placemark>
        <name>Po Lung Building</name>
        <visibility>1</visibility>
        <Point>
          <coordinates>114.165812,22.327468</coordinates>
        </Point>
      </Placemark>
      <Placemark>
        <name>Man Hoi Mansion</name>
        <visibility>1</visibility>
        <Point>
          <coordinates>114.165530,22.328540</coordinates>
        </Point>
      </Placemark>
    </Folder>
    <Folder>
      <name>13</name>
      <visibility>1</visibility>
      <Placemark>
        <name>Hang Shing Building</name>
        <visibility>1</visibility>
        <Point>
          <coordinates>114.166970,22.327422</coordinates>
        </Point>
      </Placemark>
      <Placemark>
        <name>Emerald Twenty Eight</name>
        <visibility>1</visibility>
        <Point>
          <coordinates>114.167660,22.327298</coordinates>
        </Point>
      </Placemark>
      <Placemark>
        <name>United Chinese Bank Building</name>
        <visibility>1</visibility>
        <Point>
          <coordinates>114.167743,22.327129</coordinates>
        </Point>
      </Placemark>
      <Placemark>
        <name>Cheung Shing Building</name>
        <visibility>1</visibility>
        <Point>
          <coordinates>114.167226,22.326674</coordinates>
        </Point>
      </Placemark>
      <Placemark>
        <name>Galloway Mansion</name>
        <visibility>1</visibility>
        <Point>
          <coordinates>114.167105,22.326747</coordinates>
        </Point>
      </Placemark>
      <Placemark>
        <name>Yue Wah Building</name>
        <visibility>1</visibility>
        <Point>
          <coordinates>114.166909,22.326898</coordinates>
        </Point>
      </Placemark>
      <Placemark>
        <name>Wah Tao Building</name>
        <visibility>1</visibility>
        <Point>
          <coordinates>114.167814,22.327012</coordinates>
        </Point>
      </Placemark>
      <Placemark>
        <name>Cheung Fung Commercial Building</name>
        <visibility>1</visibility>
        <Point>
          <coordinates>114.166636,22.327087</coordinates>
        </Point>
      </Placemark>
    </Folder>
    <Folder>
      <name>14</name>
      <visibility>1</visibility>
      <Placemark>
        <name>Tai Sang Bank Building</name>
        <visibility>1</visibility>
        <Point>
          <coordinates>114.168272,22.325731</coordinates>
        </Point>
      </Placemark>
      <Placemark>
        <name>Lei Yin Building</name>
        <visibility>1</visibility>
        <Point>
          <coordinates>114.168216,22.325631</coordinates>
        </Point>
      </Placemark>
      <Placemark>
        <name>Hanley House</name>
        <visibility>1</visibility>
        <Point>
          <coordinates>114.168273,22.325503</coordinates>
        </Point>
      </Placemark>
      <Placemark>
        <name>Sin Hua Bank Building</name>
        <visibility>1</visibility>
        <Point>
          <coordinates>114.168361,22.325336</coordinates>
        </Point>
      </Placemark>
      <Placemark>
        <name>Union Park Centre</name>
        <visibility>1</visibility>
        <Point>
          <coordinates>114.167901,22.325293</coordinates>
        </Point>
      </Placemark>
      <Placemark>
        <name>Amber House</name>
        <visibility>1</visibility>
        <Point>
          <coordinates>114.167891,22.325456</coordinates>
        </Point>
      </Placemark>
      <Placemark>
        <name>Lee May Building</name>
        <visibility>1</visibility>
        <Point>
          <coordinates>114.168234,22.325906</coordinates>
        </Point>
      </Placemark>
      <Placemark>
        <name>Prosperity Commercial Building</name>
        <visibility>1</visibility>
        <Point>
          <coordinates>114.168265,22.325802</coordinates>
        </Point>
      </Placemark>
      <Placemark>
        <name>Lee Tat Building</name>
        <visibility>1</visibility>
        <Point>
          <coordinates>114.167800,22.325763</coordinates>
        </Point>
      </Placemark>
    </Folder>
    <Folder>
      <name>15</name>
      <visibility>1</visibility>
      <Placemark>
        <name>Bijou Apartments</name>
        <visibility>1</visibility>
        <Point>
          <coordinates>114.168828,22.323867</coordinates>
        </Point>
      </Placemark>
      <Placemark>
        <name>Cosmopolitan Centre</name>
        <visibility>1</visibility>
        <Point>
          <coordinates>114.168641,22.323684</coordinates>
        </Point>
      </Placemark>
      <Placemark>
        <name>Allied Plaza</name>
        <visibility>1</visibility>
        <Point>
          <coordinates>114.168829,22.323508</coordinates>
        </Point>
      </Placemark>
      <Placemark>
        <name>European Asian Bank Building</name>
        <visibility>1</visibility>
        <Point>
          <coordinates>114.168243,22.323497</coordinates>
        </Point>
      </Placemark>
      <Placemark>
        <name>Hing Pong Commercial Building</name>
        <visibility>1</visibility>
        <Point>
          <coordinates>114.168182,22.323600</coordinates>
        </Point>
      </Placemark>
      <Placemark>
        <name>Edward Mansion</name>
        <visibility>1</visibility>
        <Point>
          <coordinates>114.168265,22.323684</coordinates>
        </Point>
      </Placemark>
      <Placemark>
        <name>Kwan Ngan House</name>
        <visibility>1</visibility>
        <Point>
          <coordinates>114.168150,22.324209</coordinates>
        </Point>
      </Placemark>
    </Folder>
    <Folder>
      <name>16</name>
      <visibility>1</visibility>
      <Placemark>
        <name>Mascot House</name>
        <visibility>1</visibility>
        <Point>
          <coordinates>114.169058,22.321924</coordinates>
        </Point>
      </Placemark>
      <Placemark>
        <name>Kingland Apartments</name>
        <visibility>1</visibility>
        <Point>
          <coordinates>114.168610,22.321769</coordinates>
        </Point>
      </Placemark>
      <Placemark>
        <name>Carprio Mansion</name>
        <visibility>1</visibility>
        <Point>
          <coordinates>114.168431,22.322168</coordinates>
        </Point>
      </Placemark>
      <Placemark>
        <name>Pioneer Centre</name>
        <visibility>1</visibility>
        <Point>
          <coordinates>114.169011,22.322583</coordinates>
        </Point>
      </Placemark>
      <Placemark>
        <name>Lee Wah Building</name>
        <visibility>1</visibility>
        <Point>
          <coordinates>114.169104,22.321715</coordinates>
        </Point>
      </Placemark>
      <Placemark>
        <name>Lee Fat Building</name>
        <visibility>1</visibility>
        <Point>
          <coordinates>114.168357,22.321789</coordinates>
        </Point>
      </Placemark>
    </Folder>
    <Folder>
      <name>17</name>
      <visibility>1</visibility>
      <Placemark>
        <name>Le Diamant</name>
        <visibility>1</visibility>
        <Point>
          <coordinates>114.168899,22.320310</coordinates>
        </Point>
      </Placemark>
      <Placemark>
        <name>T.O.P This is our place</name>
        <visibility>1</visibility>
        <Point>
          <coordinates>114.169452,22.320580</coordinates>
        </Point>
      </Placemark>
      <Placemark>
        <name>Argyle Centre Phase 1</name>
        <visibility>1</visibility>
        <Point>
          <coordinates>114.169634,22.319934</coordinates>
        </Point>
      </Placemark>
      <Placemark>
        <name>Hua Chiao Commercial Centre</name>
        <visibility>1</visibility>
        <Point>
          <coordinates>114.169504,22.319861</coordinates>
        </Point>
      </Placemark>
      <Placemark>
        <name>Winner Mansion</name>
        <visibility>1</visibility>
        <Point>
          <coordinates>114.168967,22.319974</coordinates>
        </Point>
      </Placemark>
      <Placemark>
        <name>Punfet Building</name>
        <visibility>1</visibility>
        <Point>
          <coordinates>114.169024,22.320094</coordinates>
        </Point>
      </Placemark>
      <Placemark>
        <name>Trade Department Tower</name>
        <visibility>1</visibility>
        <Point>
          <coordinates>114.169425,22.320607</coordinates>
        </Point>
      </Placemark>
      <Placemark>
        <name>Silvercorp Intl Tower</name>
        <visibility>1</visibility>
        <Point>
          <coordinates>114.168849,22.320451</coordinates>
        </Point>
      </Placemark>
    </Folder>
    <Folder>
      <name>18</name>
      <visibility>1</visibility>
      <Placemark>
        <name>Toa Tak Building</name>
        <visibility>1</visibility>
        <Point>
          <coordinates>114.169740,22.318646</coordinates>
        </Point>
      </Placemark>
      <Placemark>
        <name>Bank of East Asia Building, Mongkok</name>
        <visibility>1</visibility>
        <Point>
          <coordinates>114.169728,22.318501</coordinates>
        </Point>
      </Placemark>
      <Placemark>
        <name>Wu Sang House</name>
        <visibility>1</visibility>
        <Point>
          <coordinates>114.169269,22.318534</coordinates>
        </Point>
      </Placemark>
      <Placemark>
        <name>Rex House</name>
        <visibility>1</visibility>
        <Point>
          <coordinates>114.169724,22.318736</coordinates>
        </Point>
      </Placemark>
      <Placemark>
        <name>Yau Shing Commercial Centre</name>
        <visibility>1</visibility>
        <Point>
          <coordinates>114.169934,22.318609</coordinates>
        </Point>
      </Placemark>
      <Placemark>
        <name>Bank Centre</name>
        <visibility>1</visibility>
        <Point>
          <coordinates>114.169974,22.318184</coordinates>
        </Point>
      </Placemark>
      <Placemark>
        <name>One Grand Tower</name>
        <visibility>1</visibility>
        <Point>
          <coordinates>114.169311,22.317738</coordinates>
        </Point>
      </Placemark>
    </Folder>
    <Folder>
      <name>19</name>
      <visibility>1</visibility>
      <Placemark>
        <name>Hollywood Plaza</name>
        <visibility>1</visibility>
        <Point>
          <coordinates>114.170172,22.316871</coordinates>
        </Point>
      </Placemark>
      <Placemark>
        <name>President Commercial Centre</name>
        <visibility>1</visibility>
        <Point>
          <coordinates>114.170257,22.316446</coordinates>
        </Point>
      </Placemark>
      <Placemark>
        <name>Chong Hing Square</name>
        <visibility>1</visibility>
        <Point>
          <coordinates>114.169702,22.316250</coordinates>
        </Point>
      </Placemark>
      <Placemark>
        <name>Sun Hing Building</name>
        <visibility>1</visibility>
        <Point>
          <coordinates>114.169568,22.316844</coordinates>
        </Point>
      </Placemark>
      <Placemark>
        <name>Foo Tai Building</name>
        <visibility>1</visibility>
        <Point>
          <coordinates>114.170437,22.316536</coordinates>
        </Point>
      </Placemark>
      <Placemark>
        <name>Mongkok Metro</name>
        <visibility>1</visibility>
        <Point>
          <coordinates>114.170213,22.316283</coordinates>
        </Point>
      </Placemark>
      <Placemark>
        <name>South China Cinemas 1 &amp; 2</name>
        <visibility>1</visibility>
        <Point>
          <coordinates>114.169414,22.316752</coordinates>
        </Point>
      </Placemark>
    </Folder>
    <Folder>
      <name>20</name>
      <visibility>1</visibility>
      <Placemark>
        <name>Kelly Commercial Centre</name>
        <visibility>1</visibility>
        <Point>
          <coordinates>114.170512,22.315060</coordinates>
        </Point>
      </Placemark>
      <Placemark>
        <name>Kiu Kin Building</name>
        <visibility>1</visibility>
        <Point>
          <coordinates>114.170458,22.314953</coordinates>
        </Point>
      </Placemark>
      <Placemark>
        <name>Ming Fong Building</name>
        <visibility>1</visibility>
        <Point>
          <coordinates>114.170478,22.314816</coordinates>
        </Point>
      </Placemark>
      <Placemark>
        <name>Bank Of Communications Building</name>
        <visibility>1</visibility>
        <Point>
          <coordinates>114.170088,22.314628</coordinates>
        </Point>
      </Placemark>
      <Placemark>
        <name>Ginza Square</name>
        <visibility>1</visibility>
        <Point>
          <coordinates>114.170090,22.314756</coordinates>
        </Point>
      </Placemark>
      <Placemark>
        <name>Full Win Commercial Centre</name>
        <visibility>1</visibility>
        <Point>
          <coordinates>114.170103,22.314910</coordinates>
        </Point>
      </Placemark>
      <Placemark>
        <name>Wofoo Commercial Building</name>
        <visibility>1</visibility>
        <Point>
          <coordinates>114.170489,22.315171</coordinates>
        </Point>
      </Placemark>
      <Placemark>
        <name>Grand Place</name>
        <visibility>1</visibility>
        <Point>
          <coordinates>114.170614,22.314455</coordinates>
        </Point>
      </Placemark>
      <Placemark>
        <name>Ladder Dundas</name>
        <visibility>1</visibility>
        <Point>
          <coordinates>114.170015,22.315124</coordinates>
        </Point>
      </Placemark>
    </Folder>
    <Folder>
      <name>21</name>
      <visibility>1</visibility>
      <Placemark>
        <name>Wing Kiu Building</name>
        <visibility>1</visibility>
        <Point>
          <coordinates>114.170839,22.313380</coordinates>
        </Point>
      </Placemark>
      <Placemark>
        <name>Onward Building</name>
        <visibility>1</visibility>
        <Point>
          <coordinates>114.170886,22.313216</coordinates>
        </Point>
      </Placemark>
      <Placemark>
        <name>Jade Mansion</name>
        <visibility>1</visibility>
        <Point>
          <coordinates>114.170998,22.312794</coordinates>
        </Point>
      </Placemark>
      <Placemark>
        <name>Lai Kee Mansion</name>
        <visibility>1</visibility>
        <Point>
          <coordinates>114.170459,22.312755</coordinates>
        </Point>
      </Placemark>
      <Placemark>
        <name>Wing Tak Building</name>
        <visibility>1</visibility>
        <Point>
          <coordinates>114.170144,22.313112</coordinates>
        </Point>
      </Placemark>
      <Placemark>
        <name>Bell House</name>
        <visibility>1</visibility>
        <Point>
          <coordinates>114.170458,22.313135</coordinates>
        </Point>
      </Placemark>
    </Folder>
    <Folder>
      <name>22</name>
      <visibility>1</visibility>
      <Placemark>
        <name>Ek Nam Building</name>
        <visibility>1</visibility>
        <Point>
          <coordinates>114.171206,22.311485</coordinates>
        </Point>
      </Placemark>
      <Placemark>
        <name>Hung Hsing Building</name>
        <visibility>1</visibility>
        <Point>
          <coordinates>114.171170,22.311356</coordinates>
        </Point>
      </Placemark>
      <Placemark>
        <name>S. B. Commercial Building</name>
        <visibility>1</visibility>
        <Point>
          <coordinates>114.171254,22.311206</coordinates>
        </Point>
      </Placemark>
      <Placemark>
        <name>Quality Education Tower</name>
        <visibility>1</visibility>
        <Point>
          <coordinates>114.171246,22.311094</coordinates>
        </Point>
      </Placemark>
      <Placemark>
        <name>Hong Lok House</name>
        <visibility>1</visibility>
        <Point>
          <coordinates>114.170803,22.311102</coordinates>
        </Point>
      </Placemark>
      <Placemark>
        <name>Camy House</name>
        <visibility>1</visibility>
        <Point>
          <coordinates>114.170815,22.311219</coordinates>
        </Point>
      </Placemark>
      <Placemark>
        <name>Casa Deluxe Hotel</name>
        <visibility>1</visibility>
        <Point>
          <coordinates>114.170789,22.311309</coordinates>
        </Point>
      </Placemark>
      <Placemark>
        <name>Shing Hing Building</name>
        <visibility>1</visibility>
        <Point>
          <coordinates>114.170725,22.311497</coordinates>
        </Point>
      </Placemark>
      <Placemark>
        <name>Oxford Commercial Building</name>
        <visibility>1</visibility>
        <Point>
          <coordinates>114.171165,22.311675</coordinates>
        </Point>
      </Placemark>
      <Placemark>
        <name>Bangkok Bank Building</name>
        <visibility>1</visibility>
        <Point>
          <coordinates>114.171153,22.311583</coordinates>
        </Point>
      </Placemark>
      <Placemark>
        <name>Ruby Commercial Building</name>
        <visibility>1</visibility>
        <Point>
          <coordinates>114.171323,22.311309</coordinates>
        </Point>
      </Placemark>
      <Placemark>
        <name>Bridal Tea House Hotel</name>
        <visibility>1</visibility>
        <Point>
          <coordinates>114.170632,22.311122</coordinates>
        </Point>
      </Placemark>
      <Placemark>
        <name>Prospect Building</name>
        <visibility>1</visibility>
        <Point>
          <coordinates>114.170692,22.311655</coordinates>
        </Point>
      </Placemark>
    </Folder>
    <Folder>
      <name>23</name>
      <visibility>1</visibility>
      <Placemark>
        <name>Tang's Mansion</name>
        <visibility>1</visibility>
        <Point>
          <coordinates>114.171538,22.309790</coordinates>
        </Point>
      </Placemark>
      <Placemark>
        <name>Nathan Commercial Building</name>
        <visibility>1</visibility>
        <Point>
          <coordinates>114.171597,22.309613</coordinates>
        </Point>
      </Placemark>
      <Placemark>
        <name>Kowloon Government Offices</name>
        <visibility>1</visibility>
        <Point>
          <coordinates>114.170932,22.309449</coordinates>
        </Point>
      </Placemark>
      <Placemark>
        <name>Chak Fung House</name>
        <visibility>1</visibility>
        <Point>
          <coordinates>114.171519,22.309851</coordinates>
        </Point>
      </Placemark>
      <Placemark>
        <name>Tin Hau Temple</name>
        <visibility>1</visibility>
        <Point>
          <coordinates>114.170742,22.309921</coordinates>
        </Point>
      </Placemark>
    </Folder>
    <Folder>
      <name>24</name>
      <visibility>1</visibility>
      <Placemark>
        <name>Hang Shing Building</name>
        <visibility>1</visibility>
        <Point>
          <coordinates>114.171059,22.307973</coordinates>
        </Point>
      </Placemark>
      <Placemark>
        <name>Nathan Hotel</name>
        <visibility>1</visibility>
        <Point>
          <coordinates>114.171665,22.307628</coordinates>
        </Point>
      </Placemark>
      <Placemark>
        <name>Wing On Kowloon Centre</name>
        <visibility>1</visibility>
        <Point>
          <coordinates>114.171097,22.307430</coordinates>
        </Point>
      </Placemark>
      <Placemark>
        <name>Map Publications Centre</name>
        <visibility>1</visibility>
        <Point>
          <coordinates>114.171644,22.308287</coordinates>
        </Point>
      </Placemark>
      <Placemark>
        <name>Eaton Hotel</name>
        <visibility>1</visibility>
        <Point>
          <coordinates>114.171859,22.307978</coordinates>
        </Point>
      </Placemark>
      <Placemark>
        <name>Excelsior Building</name>
        <visibility>1</visibility>
        <Point>
          <coordinates>114.171666,22.307362</coordinates>
        </Point>
      </Placemark>
    </Folder>
    <Folder>
      <name>25</name>
      <visibility>1</visibility>
      <Placemark>
        <name>CHI Residences 314</name>
        <visibility>1</visibility>
        <Point>
          <coordinates>114.171769,22.306227</coordinates>
        </Point>
      </Placemark>
      <Placemark>
        <name>May Ming Building</name>
        <visibility>1</visibility>
        <Point>
          <coordinates>114.171808,22.306040</coordinates>
        </Point>
      </Placemark>
      <Placemark>
        <name>New Lucky House</name>
        <visibility>1</visibility>
        <Point>
          <coordinates>114.171738,22.305830</coordinates>
        </Point>
      </Placemark>
      <Placemark>
        <name>Champion Building</name>
        <visibility>1</visibility>
        <Point>
          <coordinates>114.171325,22.305653</coordinates>
        </Point>
      </Placemark>
      <Placemark>
        <name>Hong Kiu Mansion</name>
        <visibility>1</visibility>
        <Point>
          <coordinates>114.171286,22.306064</coordinates>
        </Point>
      </Placemark>
      <Placemark>
        <name>Backingham Building</name>
        <visibility>1</visibility>
        <Point>
          <coordinates>114.171258,22.306340</coordinates>
        </Point>
      </Placemark>
    </Folder>
    <Folder>
      <name>26</name>
      <visibility>1</visibility>
      <Placemark>
        <name>Prudential Hotel</name>
        <visibility>1</visibility>
        <Point>
          <coordinates>114.171964,22.304320</coordinates>
        </Point>
      </Placemark>
      <Placemark>
        <name>Fourseas Building</name>
        <visibility>1</visibility>
        <Point>
          <coordinates>114.171998,22.303842</coordinates>
        </Point>
      </Placemark>
      <Placemark>
        <name>Hanford House</name>
        <visibility>1</visibility>
        <Point>
          <coordinates>114.171470,22.303856</coordinates>
        </Point>
      </Placemark>
      <Placemark>
        <name>Shamrock Hotel</name>
        <visibility>1</visibility>
        <Point>
          <coordinates>114.171544,22.304029</coordinates>
        </Point>
      </Placemark>
      <Placemark>
        <name>Pearl Oriental Tower</name>
        <visibility>1</visibility>
        <Point>
          <coordinates>114.171418,22.304470</coordinates>
        </Point>
      </Placemark>
    </Folder>
    <Folder>
      <name>27</name>
      <visibility>1</visibility>
      <Placemark>
        <name>Pacific Mansion</name>
        <visibility>1</visibility>
        <Point>
          <coordinates>114.172111,22.302473</coordinates>
        </Point>
      </Placemark>
      <Placemark>
        <name>St. Andrew's Church Life Centre</name>
        <visibility>1</visibility>
        <Point>
          <coordinates>114.172027,22.302316</coordinates>
        </Point>
      </Placemark>
      <Placemark>
        <name>Ancillarybldg 'B' Substation</name>
        <visibility>1</visibility>
        <Point>
          <coordinates>114.171370,22.302040</coordinates>
        </Point>
      </Placemark>
      <Placemark>
        <name>Ancillary Building C Substation</name>
        <visibility>1</visibility>
        <Point>
          <coordinates>114.171328,22.302158</coordinates>
        </Point>
      </Placemark>
      <Placemark>
        <name>Good Results Building</name>
        <visibility>1</visibility>
        <Point>
          <coordinates>114.172104,22.302579</coordinates>
        </Point>
      </Placemark>
      <Placemark>
        <name>Park Lane Shopper's Boulevard</name>
        <visibility>1</visibility>
        <Point>
          <coordinates>114.171580,22.301786</coordinates>
        </Point>
      </Placemark>
      <Placemark>
        <name>Tsim Sha Tsui Police Station</name>
        <visibility>1</visibility>
        <Point>
          <coordinates>114.171211,22.302609</coordinates>
        </Point>
      </Placemark>
    </Folder>
    <Folder>
      <name>28</name>
      <visibility>1</visibility>
      <Placemark>
        <name>Miramar Shopping Centre</name>
        <visibility>1</visibility>
        <Point>
          <coordinates>114.172186,22.300860</coordinates>
        </Point>
      </Placemark>
      <Placemark>
        <name>Hotel Miramar</name>
        <visibility>1</visibility>
        <Point>
          <coordinates>114.172421,22.300282</coordinates>
        </Point>
      </Placemark>
      <Placemark>
        <name>Park Lane Shopper's Boulevard</name>
        <visibility>1</visibility>
        <Point>
          <coordinates>114.171644,22.300843</coordinates>
        </Point>
      </Placemark>
    </Folder>
    <Folder>
      <name>29</name>
      <visibility>1</visibility>
      <Placemark>
        <name>Comfort Building</name>
        <visibility>1</visibility>
        <Point>
          <coordinates>114.172350,22.299002</coordinates>
        </Point>
      </Placemark>
      <Placemark>
        <name>Majestic House</name>
        <visibility>1</visibility>
        <Point>
          <coordinates>114.172387,22.298579</coordinates>
        </Point>
      </Placemark>
      <Placemark>
        <name>Kowloon Mosque and Islamic Centre</name>
        <visibility>1</visibility>
        <Point>
          <coordinates>114.171693,22.298729</coordinates>
        </Point>
      </Placemark>
      <Placemark>
        <name>HSBC Building Tsim Sha Tsui</name>
        <visibility>1</visibility>
        <Point>
          <coordinates>114.172378,22.298869</coordinates>
        </Point>
      </Placemark>
      <Placemark>
        <name>Manson House</name>
        <visibility>1</visibility>
        <Point>
          <coordinates>114.172406,22.298371</coordinates>
        </Point>
      </Placemark>
    </Folder>
    <Folder>
      <name>30</name>
      <visibility>1</visibility>
      <Placemark>
        <name>Mirador Mansion</name>
        <visibility>1</visibility>
        <Point>
          <coordinates>114.172586,22.297342</coordinates>
        </Point>
      </Placemark>
      <Placemark>
        <name>Holiday Inn Golden Mile Hong Kong</name>
        <visibility>1</visibility>
        <Point>
          <coordinates>114.172781,22.296817</coordinates>
        </Point>
      </Placemark>
      <Placemark>
        <name>Chungking Mansions Block A</name>
        <visibility>1</visibility>
        <Point>
          <coordinates>114.172512,22.296473</coordinates>
        </Point>
      </Placemark>
      <Placemark>
        <name>Kar Lock Building</name>
        <visibility>1</visibility>
        <Point>
          <coordinates>114.171491,22.296765</coordinates>
        </Point>
      </Placemark>
      <Placemark>
        <name>Harilela Mansion</name>
        <visibility>1</visibility>
        <Point>
          <coordinates>114.171819,22.297471</coordinates>
        </Point>
      </Placemark>
      <Placemark>
        <name>Alpha House</name>
        <visibility>1</visibility>
        <Point>
          <coordinates>114.171987,22.296264</coordinates>
        </Point>
      </Placemark>
    </Folder>
    <Folder>
      <name>31</name>
      <visibility>1</visibility>
      <Placemark>
        <name>Sheraton Hong Kong Hotel &amp; Towers</name>
        <visibility>1</visibility>
        <Point>
          <coordinates>114.172722,22.295229</coordinates>
        </Point>
      </Placemark>
      <Placemark>
        <name>The Peninsula</name>
        <visibility>1</visibility>
        <Point>
          <coordinates>114.171779,22.295175</coordinates>
        </Point>
      </Placemark>
      <Placemark>
        <name>The Peninsula Hotel Office Tower</name>
        <visibility>1</visibility>
        <Point>
          <coordinates>114.171761,22.295388</coordinates>
        </Point>
      </Placemark>
    </Folder>
  </Document>
</kml>
